{
  "sheetName": "Continental Divide Trail",
  "slug": "cdt",
  "itinerary": [
    {
      "day": 1,
      "route": "Antelope Wells (NOBO Start)",
      "distanceKm": "20",
      "elevGainM": "400",
      "elevLossM": "100",
      "maxAltM": "1380.0",
      "lat": 31.668,
      "lng": -108.017,
      "overnight": "Road Camp",
      "mapNote": "The southern terminus. Chihuahuan Desert. New Mexico emptiness. 1380m."
    },
    {
      "day": 2,
      "route": "Day 2 in Lordsburg Desert",
      "distanceKm": "22",
      "elevGainM": "200",
      "elevLossM": "200",
      "maxAltM": "1350.0",
      "lat": 32.258,
      "lng": -108.7,
      "overnight": "Wild Camp",
      "mapNote": "Desert route-finding. Minimal trail. Navigation by instinct and GPS. 1350m."
    },
    {
      "day": 3,
      "route": "Silver City approach",
      "distanceKm": "18",
      "elevGainM": "500",
      "elevLossM": "300",
      "maxAltM": "1800.0",
      "lat": 32.75,
      "lng": -108.28,
      "overnight": "Silver City Outskirts",
      "mapNote": "First town. Longest gap between towns on the CDT. 1800m."
    },
    {
      "day": 4,
      "route": "Gila River Alternate",
      "distanceKm": "20",
      "elevGainM": "300",
      "elevLossM": "200",
      "maxAltM": "1600.0",
      "lat": 33.18,
      "lng": -108.35,
      "overnight": "Gila Hot Springs",
      "mapNote": "Famous alternate route. Gila River wading required — stunning canyon. 1600m."
    },
    {
      "day": 5,
      "route": "Gila Wilderness",
      "distanceKm": "18",
      "elevGainM": "700",
      "elevLossM": "400",
      "maxAltM": "2100.0",
      "lat": 33.32,
      "lng": -108.4,
      "overnight": "Wild Camp in Gila",
      "mapNote": "America's first Wilderness area. Incredibly remote. 2100m."
    },
    {
      "day": 6,
      "route": "Gila to Black Range",
      "distanceKm": "20",
      "elevGainM": "900",
      "elevLossM": "600",
      "maxAltM": "2500.0",
      "lat": 33.42,
      "lng": -107.9,
      "overnight": "Black Range Divide",
      "mapNote": "Dramatic divide ridge above desert basins. Lightning storms. 2500m."
    },
    {
      "day": 7,
      "route": "Black Range to Pie Town",
      "distanceKm": "22",
      "elevGainM": "600",
      "elevLossM": "900",
      "maxAltM": "2400.0",
      "lat": 34.3,
      "lng": -108.14,
      "overnight": "Pie Town Cafe",
      "mapNote": "Famous cafe stop. Homemade pie. Trail angel support. 2400m."
    }
  ],
  "waypoints": [
    {
      "name": "Antelope Wells",
      "lat": 31.668,
      "lng": -108.017,
      "type": "landmark",
      "altM": 1380,
      "note": "Southern terminus. Remote border crossing. No services for miles."
    },
    {
      "name": "Glacier NP",
      "lat": 48.696,
      "lng": -113.718,
      "type": "viewpoint",
      "altM": 3190,
      "note": "Crown of the Continent. Most spectacular section of the CDT."
    },
    {
      "name": "Wind Rivers",
      "lat": 43.0,
      "lng": -109.6,
      "type": "viewpoint",
      "altM": 3900,
      "note": "Wyoming's remote wilderness. No resupply. 100+ miles of isolation."
    },
    {
      "name": "Chief Mountain",
      "lat": 48.93,
      "lng": -113.64,
      "type": "landmark",
      "altM": 2260,
      "note": "Northern terminus. Canadian border. CDT complete."
    }
  ]
}