{"sheetName":"Everest","slug":"everest","itinerary":[{"day":1,"route":"Fly to Lukla; Trek to Phakding","distance":"8 km","elevChange":"+200m / -400m","maxAltitude":"2,860 m","lat":27.7467,"lng":86.714,"overnight":"Phakding","mapNote":"First overnight after Lukla flight. Dudh Koshi river. 2610m."},{"day":2,"route":"Phakding to Namche Bazaar","distance":"11 km","elevChange":"1,000m","maxAltitude":"3,440 m","lat":27.8069,"lng":86.7139,"overnight":"Namche Bazaar","mapNote":"Sherpa capital. Horseshoe bowl. Market on Saturdays. 3440m."},{"day":3,"route":"Acclimatization Day (Namche)","distance":"5 km","elevChange":"400m","maxAltitude":"3,880 m","lat":27.8069,"lng":86.7139,"overnight":"Namche Bazaar","mapNote":"Acclimatisation day. Same teahouses. 3440m."},{"day":4,"route":"Namche to Tengboche","distance":"10 km","elevChange":"+750m / -300m","maxAltitude":"3,860 m","lat":27.836,"lng":86.764,"overnight":"Tengboche","mapNote":"Famous monastery on ridge. Ama Dablam views. 3867m."},{"day":5,"route":"Tengboche to Dingboche","distance":"11 km","elevChange":"550m","maxAltitude":"4,410 m","lat":27.8935,"lng":86.8298,"overnight":"Dingboche","mapNote":"Imja Khola side valley. Great Lhotse views. 4360m."},{"day":6,"route":"Acclimatization Day (Dingboche)","distance":"6 km","elevChange":"500m","maxAltitude":"4,900 m","lat":27.8935,"lng":86.8298,"overnight":"Dingboche","mapNote":"Acclimatisation day. Same teahouses. 4360m."},{"day":7,"route":"Dingboche to Lobuche","distance":"9 km","elevChange":"500m","maxAltitude":"4,910 m","lat":27.9478,"lng":86.8078,"overnight":"Lobuche","mapNote":"Moraine camp below Lobuche Peak. 4940m."},{"day":8,"route":"Lobuche to Gorak Shep \u2192 EBC","distance":"13 km","elevChange":"450m","maxAltitude":"5,364 m","lat":27.9986,"lng":86.8578,"overnight":"Gorak Shep / EBC","mapNote":"Gorak Shep 5140m. EBC 5364m visited same day. Sleep at Gorak Shep."},{"day":9,"route":"Kala Patthar \u2192 Pheriche","distance":"16 km","elevChange":"+400m / -1,200m","maxAltitude":"5,545 m","lat":27.8938,"lng":86.817,"overnight":"Pheriche","mapNote":"After Kala Patthar 5545m sunrise. HRA clinic here. 4371m."},{"day":10,"route":"Pheriche to Namche Bazaar","distance":"20 km","elevChange":"-800m","maxAltitude":"4,200 m","lat":27.8069,"lng":86.7139,"overnight":"Namche Bazaar","mapNote":"Return to Sherpa capital. Last teahouse comforts. 3440m."},{"day":11,"route":"Namche Bazaar to Lukla","distance":"19 km","elevChange":"-600m","maxAltitude":"3,440 m","lat":27.6868,"lng":86.7314,"overnight":"Lukla","mapNote":"Final overnight before flight. Celebrate at Hillary Bar. 2840m."},{"day":12,"route":"Fly Lukla to Kathmandu","distance":"\u2014","elevChange":"\u2014","maxAltitude":"1,400 m","lat":27.7172,"lng":85.324,"overnight":"Kathmandu (Fly Out)","mapNote":"Tribhuvan Airport. End of trek. 1400m."}],"waypoints":[{"name":"Everest Base Camp","lat":27.9986,"lng":86.8578,"type":"base_camp","altM":5364,"note":"South Base Camp on Khumbu Glacier. Icefall and expedition tents."},{"name":"Kala Patthar","lat":27.9845,"lng":86.8316,"type":"summit","altM":5545,"note":"Best Everest pre-dawn view. Highest point on standard EBC trek."},{"name":"Tengboche Monastery","lat":27.836,"lng":86.764,"type":"landmark","altM":3867,"note":"Most famous Khumbu monastery. Ama Dablam backdrop."},{"name":"Ama Dablam","lat":27.8615,"lng":86.8597,"type":"summit","altM":6812,"note":"The Matterhorn of the Himalaya. Visible for most of the trek."},{"name":"Hillary Suspension Bridge","lat":27.7888,"lng":86.7238,"type":"landmark","altM":2800,"note":"One of world's highest suspension bridges. Dudh Koshi River."},{"name":"Khumbu Glacier","lat":27.9688,"lng":86.8388,"type":"glacier","altM":4900,"note":"Enormous glacier flowing from Everest's Western Cwm."},{"name":"Everest Summit","lat":27.9881,"lng":86.925,"type":"summit","altM":8849,"note":"World's highest peak. Visible from Kala Patthar on clear days."},{"name":"Namche Bazaar Saturday Market","lat":27.8069,"lng":86.7139,"type":"landmark","altM":3440,"note":"Sherpa capital weekly market. Yaks, equipment, food. Don't miss."}]}