{"sheetName":"Gokyo Lakes","slug":"gokyo","itinerary":[{"day":1,"route":"Flight to Lukla; Trek to Phakding","distance":"8 km","elevGain":"200m","maxAlt":"2,860m","overnightStay":"Phakding","keyHighlight":"Thrilling flight & Dudh Koshi river","lat":27.7467,"lng":86.714,"overnight":"Phakding","mapNote":"Fly Lukla, trek down Dudh Koshi. 2610m."},{"day":2,"route":"Phakding to Namche Bazaar","distance":"11 km","elevGain":"1,000m","maxAlt":"3,440m","overnightStay":"Namche","keyHighlight":"First view of Everest; Hillary Bridge","lat":27.8069,"lng":86.7139,"overnight":"Namche Bazaar","mapNote":"Steep climb via Hillary Bridge. Sherpa capital. 3440m."},{"day":3,"route":"Acclimatization Day","distance":"-","elevGain":"-","maxAlt":"3,880m","overnightStay":"Namche","keyHighlight":"Hike to Everest View Hotel","lat":27.8069,"lng":86.7139,"overnight":"Namche Bazaar","mapNote":"Acclimatisation. Everest View Hotel hike. 3440m."},{"day":4,"route":"Namche to Thame","distance":"10 km","elevGain":"350m","maxAlt":"3,820m","overnightStay":"Thame","keyHighlight":"Traditional Sherpa village & monastery","lat":27.8888,"lng":86.6638,"overnight":"Thame","mapNote":"Diverge from EBC trail west. Thame monastery. 3800m."},{"day":5,"route":"Thame to Lungden","distance":"11 km","elevGain":"#ERROR!","maxAlt":"4,380m","overnightStay":"Lungden","keyHighlight":"Ancient salt trade route to Tibet","lat":27.9488,"lng":86.6288,"overnight":"Lungden","mapNote":"Remote valley camp before Renjo La. 4380m."},{"day":6,"route":"Lungden to Gokyo via Renjo La","distance":"12 km","elevGain":"1,000m","maxAlt":"5,360m","overnightStay":"Gokyo","keyHighlight":"Pass #1; View of Gokyo Lakes","lat":27.9618,"lng":86.6858,"overnight":"Gokyo Village","mapNote":"After Renjo La 5360m. Gokyo Lake 4790m. 4790m."},{"day":7,"route":"Gokyo Ri Summit & Rest","distance":"4 km","elevGain":"600m","maxAlt":"5,357m","overnightStay":"Gokyo","keyHighlight":"Best 360\u00b0 pano of 8,000m peaks","lat":27.9618,"lng":86.6858,"overnight":"Gokyo Village","mapNote":"Pre-dawn Gokyo Ri 5357m summit. Rest day. 4790m."},{"day":8,"route":"Gokyo to Dragnag","distance":"5 km","elevGain":"100m","maxAlt":"4,750m","overnightStay":"Dragnag","keyHighlight":"Crossing the massive Ngozumpa Glacier","lat":27.9688,"lng":86.7288,"overnight":"Dragnag","mapNote":"Traverse Ngozumpa Glacier (longest in Nepal). 4700m."},{"day":9,"route":"Dragnag to Dzongla via Cho La","distance":"10 km","elevGain":"800m","maxAlt":"5,420m","overnightStay":"Dzongla","keyHighlight":"Pass #2; Crossing the glacier pass","lat":27.9488,"lng":86.7788,"overnight":"Dzongla","mapNote":"After Cho La Pass 5420m. 4830m."},{"day":10,"route":"Dzongla to Lobuche","distance":"7 km","elevGain":"200m","maxAlt":"4,940m","overnightStay":"Lobuche","keyHighlight":"Views of Ama Dablam & Nuptse","lat":27.9478,"lng":86.8078,"overnight":"Lobuche","mapNote":"Rejoin EBC route. 4940m."},{"day":11,"route":"Lobuche to Gorak Shep (EBC Side Trip)","distance":"12 km","elevGain":"450m","maxAlt":"5,364m","overnightStay":"Gorak Shep","keyHighlight":"Everest Base Camp","lat":27.9986,"lng":86.8578,"overnight":"Gorak Shep","mapNote":"EBC 5364m side trip. Gorak Shep sleep. 5140m."},{"day":12,"route":"Kala Patthar Summit; to Lobuche","distance":"8 km","elevGain":"400m","maxAlt":"5,550m","overnightStay":"Lobuche","keyHighlight":"Sunrise over Everest","lat":27.9478,"lng":86.8078,"overnight":"Lobuche","mapNote":"Pre-dawn Kala Patthar 5545m summit. Return Lobuche. 4940m."},{"day":13,"route":"Lobuche to Chhukung via Kongma La","distance":"13 km","elevGain":"700m","maxAlt":"5,535m","overnightStay":"Chhukung","keyHighlight":"Pass #3; Highest & hardest pass","lat":27.8988,"lng":86.8338,"overnight":"Chhukung","mapNote":"After Kongma La 5535m \u2014 highest of three passes. 4730m."},{"day":14,"route":"Chhukung Ri (Optional); to Pangboche","distance":"10 km","elevGain":"-1,400m","maxAlt":"5,546m","overnightStay":"Pangboche","keyHighlight":"Descending into thicker air","lat":27.8568,"lng":86.7938,"overnight":"Pangboche","mapNote":"Optional Chhukung Ri 5550m. Descend to Pangboche monastery. 3985m."},{"day":15,"route":"Pangboche to Namche Bazaar","distance":"14 km","elevGain":"-500m","maxAlt":"3,980m","overnightStay":"Namche","keyHighlight":"Tengboche Monastery visit","lat":27.8069,"lng":86.7139,"overnight":"Namche Bazaar","mapNote":"Long return day down Imja and Dudh Koshi valleys. 3440m."},{"day":16,"route":"Namche to Lukla","distance":"19 km","elevGain":"-800m","maxAlt":"3,440m","overnightStay":"Lukla","keyHighlight":"Celebration of trek completion","lat":27.6868,"lng":86.7314,"overnight":"Lukla","mapNote":"Final descent to Lukla. Last teahouse night. 2840m."},{"day":17,"route":"Flight Lukla to Kathmandu","distance":"-","elevGain":"-","maxAlt":"2,860m","overnightStay":"Kathmandu","keyHighlight":"Buffer day for flight weather","lat":27.7172,"lng":85.324,"overnight":"Kathmandu (Fly)","mapNote":"Morning flight Lukla \u2192 Kathmandu. 1400m."},{"day":18,"route":"Departure","distance":"-","elevGain":"-","maxAlt":"-","overnightStay":"-","keyHighlight":"Journey home","lat":27.7172,"lng":85.324,"overnight":"Kathmandu (Departure)","mapNote":"Departure day. Same city. 1400m."}],"waypoints":[{"name":"Renjo La Pass","lat":27.9888,"lng":86.6588,"type":"pass","altM":5360,"note":"First of three passes. Everest, Makalu & Cho Oyu panorama."},{"name":"Gokyo Ri Summit","lat":27.9678,"lng":86.6808,"type":"summit","altM":5357,"note":"Best 360\u00b0 view of Everest massif \u2014 many prefer to EBC."},{"name":"Gokyo Lake (4th Lake)","lat":27.9618,"lng":86.6858,"type":"viewpoint","altM":4790,"note":"Sacred Dudh Pokhari. Turquoise glacial lake chain."},{"name":"Ngozumpa Glacier","lat":27.9688,"lng":86.7288,"type":"glacier","altM":4700,"note":"Longest glacier in Nepal. 36km. Moraine traverse."},{"name":"Cho La Pass","lat":27.9618,"lng":86.7708,"type":"pass","altM":5420,"note":"Second pass. Glacier crossing. Crampons may be needed."},{"name":"Everest Base Camp","lat":27.9986,"lng":86.8578,"type":"base_camp","altM":5364,"note":"Khumbu Icefall and Base Camp. Day trip from Gorak Shep."},{"name":"Kala Patthar","lat":27.9845,"lng":86.8316,"type":"summit","altM":5545,"note":"Highest point on standard EBC itineraries. Everest dawn view."},{"name":"Kongma La Pass","lat":27.9318,"lng":86.8688,"type":"pass","altM":5535,"note":"Third and highest pass of Three Passes route."},{"name":"Chhukung Ri","lat":27.9128,"lng":86.8538,"type":"summit","altM":5550,"note":"Optional peak with Island Peak and Lhotse views."},{"name":"Tengboche Monastery","lat":27.836,"lng":86.764,"type":"landmark","altM":3867,"note":"Most famous monastery in Khumbu. Ama Dablam backdrop."}]}