{"sheetName":"Huayhuash","slug":"huayhuash","itinerary":[{"day":1,"route":"Cuartelwain to Mitucocha","distanceKm":"12.0","elevGainM":"600.0","elevLossM":"500.0","maxAltM":"4700.0","lat":-10.1788,"lng":-76.9148,"overnight":"Mitucocha Camp","mapNote":"First camp. Arrival lake below Jirishanca. 4420m."},{"day":2,"route":"Mitucocha to Carhuacocha","distanceKm":"10.0","elevGainM":"500.0","elevLossM":"600.0","maxAltM":"4600.0","lat":-10.2358,"lng":-76.9498,"overnight":"Carhuacocha Camp","mapNote":"Triple-peak reflection lake. Yerupaj\u00e1, Siula, Jirishanca. 4138m."},{"day":3,"route":"Carhuacocha to Huayhuash","distanceKm":"14.0","elevGainM":"800.0","elevLossM":"700.0","maxAltM":"4800.0","lat":-10.2968,"lng":-76.9228,"overnight":"Huayhuash Camp","mapNote":"Below Siula Grande (scene of 'Touching the Void'). 4350m."},{"day":4,"route":"Huayhuash to Viconga","distanceKm":"11.0","elevGainM":"550.0","elevLossM":"450.0","maxAltM":"4750.0","lat":-10.3428,"lng":-76.8698,"overnight":"Viconga Camp","mapNote":"Natural thermal pool camp. Cuyoc Pass 5000m crossed. 4350m."},{"day":5,"route":"Viconga to Huanacpatay","distanceKm":"10.0","elevGainM":"700.0","elevLossM":"800.0","maxAltM":"5000.0","lat":-10.3658,"lng":-76.8098,"overnight":"Huanacpatay Camp","mapNote":"High pass day. Remote southern circuit section. 4600m."},{"day":6,"route":"Huanacpatay to Huayllapa","distanceKm":"15.0","elevGainM":"100.0","elevLossM":"1100.0","maxAltM":"4300.0","lat":-10.3428,"lng":-76.7538,"overnight":"Huayllapa Village","mapNote":"Only village on circuit. Basic supplies available. 3500m."},{"day":7,"route":"Huayllapa to Gashpapampa","distanceKm":"14.0","elevGainM":"1300.0","elevLossM":"400.0","maxAltM":"4800.0","lat":-10.2758,"lng":-76.8028,"overnight":"Gashpapampa Camp","mapNote":"High camp before final pass. Wild camping. 4700m."},{"day":8,"route":"Gashpapampa to Jahuacocha","distanceKm":"12.0","elevGainM":"500.0","elevLossM":"700.0","maxAltM":"4750.0","lat":-10.1998,"lng":-76.8668,"overnight":"Jahuacocha (Finish)","mapNote":"Final camp. Yerupaj\u00e1 reflected in lake. Exit via Llamac. 4100m."}],"waypoints":[{"name":"Yerupaj\u00e1","lat":-10.2688,"lng":-76.9088,"type":"summit","altM":6635,"note":"Second highest in Peru. 'El Carnicero'. Reflected in Carhuacocha."},{"name":"Siula Grande","lat":-10.2868,"lng":-76.9288,"type":"summit","altM":6344,"note":"'Touching the Void' \u2014 Joe Simpson's legendary survival story here."},{"name":"Jirishanca","lat":-10.2288,"lng":-76.9188,"type":"summit","altM":6094,"note":"'Ice Flower of the Andes'. One of most beautiful Andean peaks."},{"name":"Carhuacocha Lake","lat":-10.2358,"lng":-76.9498,"type":"viewpoint","altM":4138,"note":"Triple-peak reflection lake. Most photographed spot on circuit."},{"name":"Cuyoc Pass","lat":-10.3288,"lng":-76.8888,"type":"pass","altM":5000,"note":"Highest pass on circuit. Often snow-covered even in dry season."},{"name":"Jahuacocha Lake","lat":-10.1998,"lng":-76.8668,"type":"viewpoint","altM":4100,"note":"Final lake. Yerupaj\u00e1 reflection. Circuit's most scenic finish."},{"name":"Tapush Pass","lat":-10.3488,"lng":-76.8188,"type":"pass","altM":5000,"note":"Second 5000m+ pass. Southern section. Often lonely and wild."}]}