{"sheetName":"Mount Kenya","slug":"kenya","itinerary":[{"day":1,"route":"Sirimon Gate to Old Moses Camp","distance":"9.0 km","elevGain":"860m","maxAltitude":"3,300 m","lat":0.0388,"lng":37.3588,"overnight":"Old Moses Camp","mapNote":"Sirimon route entry. Bamboo forest. 3300m."},{"day":2,"route":"Old Moses to Shiptons Camp","distance":"14.0 km","elevGain":"900m","maxAltitude":"4,200 m","lat":0.0788,"lng":37.3538,"overnight":"Shiptons Camp","mapNote":"Main high camp below the peaks. 4200m."},{"day":3,"route":"Shiptons to Point Lenana & Mintos","distance":"12.0 km","elevGain":"+800m / -1,200m","maxAltitude":"4,985 m","lat":0.0688,"lng":37.3688,"overnight":"Mintos Hut","mapNote":"Pre-dawn Point Lenana 4985m summit. Descend to Mintos. 4200m."},{"day":4,"route":"Mintos to Meru Bandas","distance":"14.0 km","elevGain":"-1,300m","maxAltitude":"4,300 m","lat":0.0188,"lng":37.4188,"overnight":"Meru Bandas","mapNote":"Chogoria route descent. Giant lobelias. 3000m."},{"day":5,"route":"Meru Bandas to Chogoria Gate","distance":"10.0 km","elevGain":"-500m","maxAltitude":"3,000 m","lat":-0.0788,"lng":37.4788,"overnight":"Chogoria Gate (Finish)","mapNote":"Trail end. Forest zone exit. Vehicle to Chogoria town. 2990m."}],"waypoints":[{"name":"Point Lenana","lat":0.1538,"lng":37.3088,"type":"summit","altM":4985,"note":"Highest trekking point on Mt Kenya. 3rd highest peak at 4985m."},{"name":"Batian Peak","lat":0.1488,"lng":37.3088,"type":"summit","altM":5199,"note":"True summit of Mt Kenya. Technical rock climb. Highest in Kenya."},{"name":"Lewis Glacier","lat":0.1488,"lng":37.3138,"type":"glacier","altM":4800,"note":"Rapidly retreating equatorial glacier below the peaks."},{"name":"Simba Col","lat":0.1388,"lng":37.3388,"type":"pass","altM":4620,"note":"Pre-dawn col approach to Lenana. Spectacular sunrise views."},{"name":"Hall Tarns","lat":0.1288,"lng":37.3288,"type":"viewpoint","altM":4250,"note":"Glacial lakes with Batian reflection. Near Shiptons Camp."},{"name":"Giant Groundsel Forest","lat":0.0788,"lng":37.3938,"type":"landmark","altM":3800,"note":"Otherworldly Afroalpine vegetation. Giant lobelias and groundsels."}]}