{
  "sheetName": "Lares Trek",
  "slug": "lares_trek",
  "itinerary": [
    {
      "day": 1,
      "route": "Lares village to Ipsaycocha Lake",
      "distanceKm": "10",
      "elevGainM": "720",
      "elevLossM": "180",
      "maxAltM": "4200.0",
      "lat": -13.3,
      "lng": -72.05,
      "overnight": "Ipsaycocha Camp",
      "mapNote": "Hot springs at Lares before the climb. First high camp beside a glacial lake. 4200m."
    },
    {
      "day": 2,
      "route": "Ipsaycocha to Cancha Cancha via high pass",
      "distanceKm": "12",
      "elevGainM": "400",
      "elevLossM": "860",
      "maxAltM": "4600.0",
      "lat": -13.38,
      "lng": -72.0,
      "overnight": "Cancha Cancha Community",
      "mapNote": "Highest point of the trek at 4600m. Descent to Cancha Cancha — a Quechua weaving community. 4600m."
    },
    {
      "day": 3,
      "route": "Cancha Cancha to Patacancha via cloud forest",
      "distanceKm": "8",
      "elevGainM": "280",
      "elevLossM": "680",
      "maxAltM": "4100.0",
      "lat": -13.45,
      "lng": -72.02,
      "overnight": "Patacancha village",
      "mapNote": "Cloud forest descent past alpaca herds and terracing. Patacancha textile market. 3760m."
    },
    {
      "day": 4,
      "route": "Patacancha to Ollantaytambo, train to Aguas Calientes, Machu Picchu",
      "distanceKm": "5",
      "elevGainM": "100",
      "elevLossM": "900",
      "maxAltM": "3800.0",
      "lat": -13.52,
      "lng": -72.27,
      "overnight": "Aguas Calientes / Machu Picchu",
      "mapNote": "Final descent to Ollantaytambo Inca fortress. Train through the Sacred Valley to Machu Picchu. 2430m."
    }
  ],
  "waypoints": [
    {
      "name": "Lares Hot Springs",
      "lat": -13.3,
      "lng": -72.08,
      "type": "hot_spring",
      "altM": 3550,
      "note": "Natural thermal pools at the trek's start — traditional bathing site for local communities."
    },
    {
      "name": "Ipsaycocha Lake",
      "lat": -13.31,
      "lng": -72.05,
      "type": "viewpoint",
      "altM": 4200,
      "note": "High glacial lake camp. Condors frequently visible above the surrounding peaks."
    },
    {
      "name": "Trek High Pass",
      "lat": -13.36,
      "lng": -72.02,
      "type": "pass",
      "altM": 4600,
      "note": "The Lares Trek's highest point at 4600m. Full Andean panorama in clear conditions."
    },
    {
      "name": "Cancha Cancha",
      "lat": -13.38,
      "lng": -72.0,
      "type": "landmark",
      "altM": 3950,
      "note": "Traditional Quechua weaving community — meet weavers using techniques unchanged for centuries."
    },
    {
      "name": "Ollantaytambo",
      "lat": -13.26,
      "lng": -72.26,
      "type": "landmark",
      "altM": 2800,
      "note": "Major Inca fortress and living Inca town — the Sacred Valley's finest ruins before Machu Picchu."
    },
    {
      "name": "Machu Picchu",
      "lat": -13.16,
      "lng": -72.54,
      "type": "landmark",
      "altM": 2430,
      "note": "The Lares Trek's finish — arriving by train through the cloud forest is one of South America's great reveals."
    }
  ]
}