{"sheetName":"Mount Rinjani","slug":"rinjani","itinerary":[{"day":1,"route":"Sembalun to Rim II","distance":"10 km","elevGainLoss":"1,500m","maxAltitude":"2,639 m","lat":-8.3888,"lng":116.4488,"overnight":"Rim Camp II","mapNote":"Sembalun trailhead ascent. Savannah and forest. 2800m."},{"day":2,"route":"Summit & Descent to Lake","distance":"12 km","elevGainLoss":"+1,100m / -1,100m","maxAltitude":"3,726 m","lat":-8.4088,"lng":116.4088,"overnight":"Segara Anak Crater Lake Camp","mapNote":"Pre-dawn summit 3726m. Descent to crater lake. 2000m."},{"day":3,"route":"Lake to Senaru (Exit)","distance":"14 km","elevGainLoss":"+600m / -2,000m","maxAltitude":"2,641 m","lat":-8.3688,"lng":116.3988,"overnight":"Senaru (Finish)","mapNote":"Senaru crater rim exit. West descent. 600m."}],"waypoints":[{"name":"Rinjani Summit (Puncak Rinjani)","lat":-8.412,"lng":116.465,"type":"summit","altM":3726,"note":"2nd highest volcano in Indonesia. Crater lake Segara Anak below."},{"name":"Segara Anak Crater Lake","lat":-8.4088,"lng":116.4088,"type":"viewpoint","altM":2000,"note":"Sacred crater lake. Pilgrims come to bathe. Barujari cone inside."},{"name":"Barujari Cone","lat":-8.4138,"lng":116.4238,"type":"summit","altM":2376,"note":"Active inner cone inside crater. Still erupting periodically."},{"name":"Hot Springs (Kokok Putih)","lat":-8.4188,"lng":116.4038,"type":"hot_spring","altM":2000,"note":"Natural thermal springs at crater lake edge. Post-summit reward."},{"name":"Sembalun Trailhead","lat":-8.3688,"lng":116.5088,"type":"landmark","altM":1156,"note":"Main eastern trailhead. Savannah and strawberry farms below."}]}