{"sheetName":"Salkantay","slug":"salkantay","itinerary":[{"day":1,"route":"Mollepata to Soraypampa","distance":"12 km","elevGainLoss":"1,000m","maxAltitude":"3,900 m","lat":-13.3388,"lng":-72.7388,"overnight":"Soraypampa Camp","mapNote":"Below Humantay Lake. Salkantay glacier first views. 3900m."},{"day":2,"route":"Soraypampa to Chaullay (Pass)","distance":"22 km","elevGainLoss":"+730m / -1,700m","maxAltitude":"4,630 m","lat":-13.3688,"lng":-72.8088,"overnight":"Chaullay Camp","mapNote":"After Salkantay Pass 4630m. Cloud forest entry. 2900m."},{"day":3,"route":"Chaullay to Lucmabamba","distance":"18 km","elevGainLoss":"-800m","maxAltitude":"2,800 m","lat":-13.2888,"lng":-72.8688,"overnight":"Lucmabamba Camp","mapNote":"Coffee and coca plantations. Subtropical cloud forest. 2650m."},{"day":4,"route":"Lucmabamba to Aguas Calientes","distance":"19 km","elevGainLoss":"+500m / -1,100m","maxAltitude":"2,800 m","lat":-13.1527,"lng":-72.5268,"overnight":"Aguas Calientes","mapNote":"Machu Picchu Pueblo. Hot springs town. Last night. 2040m."},{"day":5,"route":"Machu Picchu Tour","distance":"5 km","elevGainLoss":"400m","maxAltitude":"2,430 m","lat":-13.1631,"lng":-72.545,"overnight":"Machu Picchu (Finish)","mapNote":"Citadel visit. Bus up, train to Cusco. 2430m."}],"waypoints":[{"name":"Salkantay Summit","lat":-13.3388,"lng":-72.7038,"type":"summit","altM":6271,"note":"'Savage Mountain' of Peru. Apu spirit. Glacier visible from pass."},{"name":"Salkantay Pass","lat":-13.3538,"lng":-72.7288,"type":"pass","altM":4630,"note":"Trek highpoint. Glaciated. Often windy and cold even in dry season."},{"name":"Humantay Lake","lat":-13.3388,"lng":-72.7288,"type":"viewpoint","altM":4200,"note":"Glacial turquoise lake. 2hr detour from Day 1 camp. Sacred."},{"name":"Salkantay Glacier","lat":-13.3238,"lng":-72.7088,"type":"glacier","altM":5000,"note":"Active glacier on Salkantay's south face. Visible from pass."},{"name":"Aguas Calientes","lat":-13.1527,"lng":-72.5268,"type":"landmark","altM":2040,"note":"Machu Picchu Pueblo. Train station. Hot springs pool."}]}