{"sheetName":"Timberline Trail","slug":"timberline","itinerary":[{"day":1,"route":"Timberline Lodge to Sandy River","distance":"16 km","elevGainLoss":"+400m / -900m","maxAltitude":"1,800 m","lat":45.3688,"lng":-121.6788,"overnight":"Sandy River Camp","mapNote":"From Timberline Lodge. Sandy River crossing. 1060m."},{"day":2,"route":"Sandy River to Cairn Basin","distance":"14 km","elevGainLoss":"+900m","maxAltitude":"1,800 m","lat":45.4088,"lng":-121.7688,"overnight":"Cairn Basin Camp","mapNote":"Ramona Falls passed. McNeil Point vista. 1585m."},{"day":3,"route":"Cairn Basin to Cloud Cap","distance":"15 km","elevGainLoss":"+600m / -600m","maxAltitude":"2,200 m","lat":45.4288,"lng":-121.6488,"overnight":"Cloud Cap Camp","mapNote":"North side of Hood. Cooper Spur viewpoint. 1770m."},{"day":4,"route":"Cloud Cap to Timberline Lodge","distance":"20 km","elevGainLoss":"+800m / -400m","maxAltitude":"2,100 m","lat":45.3308,"lng":-121.7108,"overnight":"Timberline Lodge (Finish)","mapNote":"Zigzag Canyon. Return to lodge. Circuit complete. 1840m."}],"waypoints":[{"name":"Mount Hood Summit","lat":45.3736,"lng":-121.696,"type":"summit","altM":3429,"note":"Oregon's highest peak. Active stratovolcano. Solfatara vents."},{"name":"Ramona Falls","lat":45.3988,"lng":-121.7688,"type":"viewpoint","altM":1100,"note":"Mossy basalt columnar fall. Most popular waterfall on Hood."},{"name":"McNeil Point","lat":45.4188,"lng":-121.7788,"type":"viewpoint","altM":1760,"note":"Stone shelter viewpoint. Best north-side Hood panorama."},{"name":"Timberline Lodge","lat":45.3308,"lng":-121.7108,"type":"landmark","altM":1840,"note":"1937 WPA lodge. 'The Shining' exterior. Year-round skiing above."},{"name":"Elliot Glacier","lat":45.3888,"lng":-121.6688,"type":"glacier","altM":2200,"note":"Largest Hood glacier. Crevassed icefall on north face."}]}