{"sheetName":"West Coast Trail","slug":"west_coast","itinerary":[{"day":1,"route":"Pachena Bay to Michigan Creek","distance":"12 km","elevGainLoss":"Flat / Sand","maxAltitude":"50 m","lat":48.7558,"lng":-124.9218,"overnight":"Michigan Creek Camp","mapNote":"Easy boardwalk start through old-growth. First sea stacks. 0\u201330m."},{"day":2,"route":"Michigan Creek to Tsusiat Falls","distance":"13 km","elevGainLoss":"Coastal","maxAltitude":"50 m","lat":48.6688,"lng":-124.9848,"overnight":"Tsusiat Falls Camp","mapNote":"Most popular camp. Waterfall drops straight to beach. 0m."},{"day":3,"route":"Tsusiat Falls to Cribs Creek","distance":"17 km","elevGainLoss":"Coastal / Ladders","maxAltitude":"100 m","lat":48.6028,"lng":-124.8988,"overnight":"Cribs Creek Camp","mapNote":"Surge channels, ladders, tide-dependent beaches. 0m."},{"day":4,"route":"Cribs Creek to Carmanah Beach","distance":"10 km","elevGainLoss":"Forest / Ladders","maxAltitude":"150 m","lat":48.6248,"lng":-124.7448,"overnight":"Carmanah Beach Camp","mapNote":"Near Carmanah Lighthouse. Giant Sitka spruce grove. 0m."},{"day":5,"route":"Carmanah to Camper Bay","distance":"13 km","elevGainLoss":"Mud / Ladders","maxAltitude":"150 m","lat":48.5978,"lng":-124.6768,"overnight":"Camper Bay Camp","mapNote":"Sheltered bay. Sandstone shelves and sea caves. 0m."},{"day":6,"route":"Camper Bay to Thrasher Cove","distance":"9 km","elevGainLoss":"Steep / Mud","maxAltitude":"200 m","lat":48.5568,"lng":-124.5918,"overnight":"Thrasher Cove Camp","mapNote":"Final beach camp before steep climb inland. 0m."},{"day":7,"route":"Thrasher Cove to Gordon River","distance":"6 km","elevGainLoss":"Very Steep","maxAltitude":"200 m","lat":48.5618,"lng":-124.4428,"overnight":"Gordon River (Finish)","mapNote":"Ferry across Gordon River. Port Renfrew trailhead. 0m."}],"waypoints":[{"name":"Pachena Bay (Start)","lat":48.7888,"lng":-125.1188,"type":"landmark","altM":0,"note":"Northern trailhead. Pachena Lighthouse. Pacific Rim National Park."},{"name":"Tsusiat Falls","lat":48.6688,"lng":-124.9848,"type":"viewpoint","altM":20,"note":"Waterfall drops directly onto beach. Most iconic photo on WCT."},{"name":"Carmanah Lighthouse","lat":48.6248,"lng":-124.7448,"type":"landmark","altM":10,"note":"Active lighthouse on exposed headland. Heritage buildings."},{"name":"Carmanah Giant Sitka","lat":48.6388,"lng":-124.7338,"type":"landmark","altM":80,"note":"Ancient Sitka spruce grove. Trees over 800 years old, 95m tall."},{"name":"Gordon River (Finish)","lat":48.5618,"lng":-124.4428,"type":"landmark","altM":0,"note":"Southern trailhead. Ferry crossing. Port Renfrew access."}]}